[
  {
    "label": "be",
    "name": "Celles",
    "ISO": "be",
    "population": "",
    "lat": 50.712537,
    "lng": 3.457492
  },
  {
    "label": "be",
    "name": "Chardeneux",
    "ISO": "be",
    "population": "",
    "lat": 50.37182,
    "lng": 5.35951
  },
  {
    "label": "be",
    "name": "Clermont-sur-Berwinne",
    "ISO": "be",
    "population": "",
    "lat": 50.659023,
    "lng": 5.884551
  },
  {
    "label": "be",
    "name": "Crupet",
    "ISO": "be",
    "population": "",
    "lat": 50.35009,
    "lng": 4.96124
  },
  {
    "label": "be",
    "name": "Fagnolle",
    "ISO": "be",
    "population": "",
    "lat": 50.10493,
    "lng": 4.56083
  },
  {
    "label": "be",
    "name": "Falaën",
    "ISO": "be",
    "population": "",
    "lat": 50.278965,
    "lng": 4.793612
  },
  {
    "label": "be",
    "name": "Gros-Fays",
    "ISO": "be",
    "population": "",
    "lat": 49.870421,
    "lng": 4.983144
  },
  {
    "label": "be",
    "name": "Laforêt",
    "ISO": "be",
    "population": "",
    "lat": 49.863209,
    "lng": 4.929959
  },
  {
    "label": "be",
    "name": "Lompret",
    "ISO": "be",
    "population": "",
    "lat": 50.06409,
    "lng": 4.37839
  },
  {
    "label": "be",
    "name": "Mélin",
    "ISO": "be",
    "population": "",
    "lat": 50.73979,
    "lng": 4.82852
  },
  {
    "label": "be",
    "name": "Mirwart",
    "ISO": "be",
    "population": "",
    "lat": 50.056451,
    "lng": 5.263839
  },
  {
    "label": "be",
    "name": "Montignies-sur-Roc",
    "ISO": "be",
    "population": "",
    "lat": 50.36841,
    "lng": 3.73608
  },
  {
    "label": "be",
    "name": "Mozet",
    "ISO": "be",
    "population": "",
    "lat": 50.44425,
    "lng": 4.98537
  },
  {
    "label": "be",
    "name": "Nobressart",
    "ISO": "be",
    "population": "",
    "lat": 49.739997,
    "lng": 5.717882
  },
  {
    "label": "be",
    "name": "Ny",
    "ISO": "be",
    "population": "",
    "lat": 40.757235,
    "lng": -73.982976
  },
  {
    "label": "be",
    "name": "Olne",
    "ISO": "be",
    "population": "",
    "lat": 50.590062,
    "lng": 5.746568
  },
  {
    "label": "be",
    "name": "Our",
    "ISO": "be",
    "population": "",
    "lat": 49.95958,
    "lng": 5.12809
  },
  {
    "label": "be",
    "name": "Ragnies",
    "ISO": "be",
    "population": "",
    "lat": 50.308555,
    "lng": 4.284151
  },
  {
    "label": "be",
    "name": "Sohier",
    "ISO": "be",
    "population": "",
    "lat": 50.068318,
    "lng": 5.067805
  },
  {
    "label": "be",
    "name": "Sosoye",
    "ISO": "be",
    "population": "",
    "lat": 50.29518,
    "lng": 4.78183
  },
  {
    "label": "be",
    "name": "Soulme",
    "ISO": "be",
    "population": "",
    "lat": 50.18873,
    "lng": 4.73735
  },
  {
    "label": "be",
    "name": "Thon-Samson",
    "ISO": "be",
    "population": "",
    "lat": 50.463354,
    "lng": 5.014587
  },
  {
    "label": "be",
    "name": "Torgny",
    "ISO": "be",
    "population": "",
    "lat": 49.508076,
    "lng": 5.474041
  },
  {
    "label": "be",
    "name": "Wéris",
    "ISO": "be",
    "population": "",
    "lat": 50.32612,
    "lng": 5.53048
  },
  {
    "label": "ca",
    "name": "Cacouna",
    "ISO": "ca",
    "population": "",
    "lat": 47.916426,
    "lng": -69.50104
  },
  {
    "label": "ca",
    "name": "Dudswell",
    "ISO": "ca",
    "population": "",
    "lat": 45.589718,
    "lng": -71.591071
  },
  {
    "label": "ca",
    "name": "Saint-Irénée",
    "ISO": "ca",
    "population": "",
    "lat": 47.52256,
    "lng": -70.155043
  },
  {
    "label": "ca",
    "name": "Saint-Michel-de-Bellechasse",
    "ISO": "ca",
    "population": "",
    "lat": 46.855427,
    "lng": -70.909573
  },
  {
    "label": "ca",
    "name": "Saint-Vallier",
    "ISO": "ca",
    "population": "",
    "lat": 46.8926,
    "lng": -70.82313
  },
  {
    "label": "ca",
    "name": "Verchères",
    "ISO": "ca",
    "population": "",
    "lat": 45.773338,
    "lng": -73.352747
  },
  {
    "label": "ch",
    "name": "Avenches",
    "ISO": "ch",
    "population": "",
    "lat": 46.880601,
    "lng": 7.042708
  },
  {
    "label": "ch",
    "name": "Breil/Brigels",
    "ISO": "ch",
    "population": "",
    "lat": 46.769563,
    "lng": 9.061376
  },
  {
    "label": "ch",
    "name": "Bremgarten",
    "ISO": "ch",
    "population": "",
    "lat": 47.349177,
    "lng": 8.33979
  },
  {
    "label": "ch",
    "name": "Cabbio-Muggio",
    "ISO": "ch",
    "population": "",
    "lat": 45.894196,
    "lng": 9.040163
  },
  {
    "label": "ch",
    "name": "Eglisau",
    "ISO": "ch",
    "population": "",
    "lat": 47.576222,
    "lng": 8.521981
  },
  {
    "label": "ch",
    "name": "Ernen",
    "ISO": "ch",
    "population": "",
    "lat": 46.3985,
    "lng": 8.145773
  },
  {
    "label": "ch",
    "name": "Grandson",
    "ISO": "ch",
    "population": "",
    "lat": 46.809209,
    "lng": 6.645768
  },
  {
    "label": "ch",
    "name": "Grimentz",
    "ISO": "ch",
    "population": "",
    "lat": 46.180536,
    "lng": 7.576438
  },
  {
    "label": "ch",
    "name": "La Neuveville",
    "ISO": "ch",
    "population": "",
    "lat": 47.063202,
    "lng": 7.091263
  },
  {
    "label": "ch",
    "name": "Le Landeron",
    "ISO": "ch",
    "population": "",
    "lat": 47.058126,
    "lng": 7.073063
  },
  {
    "label": "ch",
    "name": "Lichtensteig",
    "ISO": "ch",
    "population": "",
    "lat": 47.323904,
    "lng": 9.087684
  },
  {
    "label": "ch",
    "name": "Morcote",
    "ISO": "ch",
    "population": "",
    "lat": 45.927816,
    "lng": 8.9079
  },
  {
    "label": "ch",
    "name": "Moudon",
    "ISO": "ch",
    "population": "",
    "lat": 46.669889,
    "lng": 6.797522
  },
  {
    "label": "ch",
    "name": "Poschiavo",
    "ISO": "ch",
    "population": "",
    "lat": 46.32393,
    "lng": 10.057347
  },
  {
    "label": "ch",
    "name": "Romainmôtier",
    "ISO": "ch",
    "population": "",
    "lat": 46.69444,
    "lng": 6.460784
  },
  {
    "label": "ch",
    "name": "Rougemont",
    "ISO": "ch",
    "population": "",
    "lat": 46.48914,
    "lng": 7.208916
  },
  {
    "label": "ch",
    "name": "Saillon",
    "ISO": "ch",
    "population": "",
    "lat": 46.170709,
    "lng": 7.185842
  },
  {
    "label": "ch",
    "name": "Saint-Saphorin",
    "ISO": "ch",
    "population": "",
    "lat": 46.473277,
    "lng": 6.796182
  },
  {
    "label": "ch",
    "name": "Saint-Ursanne",
    "ISO": "ch",
    "population": "",
    "lat": 47.364282,
    "lng": 7.15428
  },
  {
    "label": "ch",
    "name": "Soglio",
    "ISO": "ch",
    "population": "",
    "lat": 46.341816,
    "lng": 9.539539
  },
  {
    "label": "ch",
    "name": "Trogen",
    "ISO": "ch",
    "population": "",
    "lat": 47.407875,
    "lng": 9.464714
  },
  {
    "label": "",
    "name": "Bad Mergentheim",
    "ISO": "de",
    "population": "",
    "lat": 49.488537,
    "lng": 9.770416
  },
  {
    "label": "",
    "name": "Bamberg",
    "ISO": "de",
    "population": "",
    "lat": 49.898814,
    "lng": 10.902764
  },
  {
    "label": "",
    "name": "Lindau",
    "ISO": "de",
    "population": "",
    "lat": 47.579782,
    "lng": 9.678933
  },
  {
    "label": "",
    "name": "Lübeck",
    "ISO": "de",
    "population": "",
    "lat": 53.865467,
    "lng": 10.686559
  },
  {
    "label": "",
    "name": "Meissen",
    "ISO": "de",
    "population": "",
    "lat": 51.161784,
    "lng": 13.497659
  },
  {
    "label": "",
    "name": "Rothenburg ob der Tauber",
    "ISO": "de",
    "population": "",
    "lat": 49.380183,
    "lng": 10.186739
  },
  {
    "label": "",
    "name": "Schwarzwald",
    "ISO": "de",
    "population": "",
    "lat": 48.277486,
    "lng": 8.185997
  },
  {
    "label": "",
    "name": "Worms",
    "ISO": "de",
    "population": "",
    "lat": 49.634137,
    "lng": 8.350718
  },
  {
    "label": "es",
    "name": "Anento",
    "ISO": "es",
    "population": "",
    "lat": 41.067115,
    "lng": -1.322823
  },
  {
    "label": "es",
    "name": "Ayllón",
    "ISO": "es",
    "population": "",
    "lat": 41.420019,
    "lng": -3.376055
  },
  {
    "label": "es",
    "name": "Calaceite",
    "ISO": "es",
    "population": "",
    "lat": 41.015848,
    "lng": 0.187639
  },
  {
    "label": "es",
    "name": "Cantavieja",
    "ISO": "es",
    "population": "",
    "lat": 40.532258,
    "lng": -0.431373
  },
  {
    "label": "es",
    "name": "Frías",
    "ISO": "es",
    "population": "",
    "lat": 42.762311,
    "lng": -3.294207
  },
  {
    "label": "es",
    "name": "La Alberca",
    "ISO": "es",
    "population": "",
    "lat": 40.483013,
    "lng": -6.120893
  },
  {
    "label": "es",
    "name": "Lastres",
    "ISO": "es",
    "population": "",
    "lat": 43.51392,
    "lng": -5.27055
  },
  {
    "label": "es",
    "name": "Lucainena de las Torres",
    "ISO": "es",
    "population": "",
    "lat": 37.040793,
    "lng": -2.201005
  },
  {
    "label": "es",
    "name": "Maderuelo",
    "ISO": "es",
    "population": "",
    "lat": 41.517817,
    "lng": -3.510454
  },
  {
    "label": "es",
    "name": "Medinaceli",
    "ISO": "es",
    "population": "",
    "lat": 41.171721,
    "lng": -2.433843
  },
  {
    "label": "es",
    "name": "Mogarraz",
    "ISO": "es",
    "population": "",
    "lat": 40.492678,
    "lng": -6.051706
  },
  {
    "label": "es",
    "name": "Mojácar",
    "ISO": "es",
    "population": "",
    "lat": 37.122031,
    "lng": -1.861101
  },
  {
    "label": "es",
    "name": "Morella",
    "ISO": "es",
    "population": "",
    "lat": 40.618139,
    "lng": -0.101549
  },
  {
    "label": "es",
    "name": "Pampaneira",
    "ISO": "es",
    "population": "",
    "lat": 36.939625,
    "lng": -3.360934
  },
  {
    "label": "es",
    "name": "Peníscola",
    "ISO": "es",
    "population": "",
    "lat": 40.359317,
    "lng": 0.36542
  },
  {
    "label": "es",
    "name": "Puertomingalvo",
    "ISO": "es",
    "population": "",
    "lat": 40.264862,
    "lng": -0.459967
  },
  {
    "label": "es",
    "name": "Rubielos de Mora",
    "ISO": "es",
    "population": "",
    "lat": 40.190127,
    "lng": -0.654184
  },
  {
    "label": "es",
    "name": "Santillana del Mar",
    "ISO": "es",
    "population": "",
    "lat": 43.387333,
    "lng": -4.106609
  },
  {
    "label": "es",
    "name": "Tejeda",
    "ISO": "es",
    "population": "",
    "lat": 27.996224,
    "lng": -15.615229
  },
  {
    "label": "es",
    "name": "Urueña",
    "ISO": "es",
    "population": "",
    "lat": 41.728335,
    "lng": -5.201225
  },
  {
    "label": "es",
    "name": "Valderrobres",
    "ISO": "es",
    "population": "",
    "lat": 40.873333,
    "lng": 0.153595
  },
  {
    "label": "es",
    "name": "Valverde de los Arroyos",
    "ISO": "es",
    "population": "",
    "lat": 41.135009,
    "lng": -3.238251
  },
  {
    "label": "es",
    "name": "Vejer de la Frontera",
    "ISO": "es",
    "population": "",
    "lat": 36.252034,
    "lng": -5.966736
  },
  {
    "label": "es",
    "name": "Vilafamés",
    "ISO": "es",
    "population": "",
    "lat": 40.113899,
    "lng": -0.051908
  },
  {
    "label": "fr",
    "name": "Aiguèze",
    "ISO": "fr",
    "population": "",
    "lat": 44.302632,
    "lng": 4.55637
  },
  {
    "label": "fr",
    "name": "Angles-sur-l'Anglin",
    "ISO": "fr",
    "population": "",
    "lat": 46.695265,
    "lng": 0.883132
  },
  {
    "label": "fr",
    "name": "Apremont-sur-Allier",
    "ISO": "fr",
    "population": "",
    "lat": 46.906517,
    "lng": 3.047373
  },
  {
    "label": "fr",
    "name": "Arlempdes",
    "ISO": "fr",
    "population": "",
    "lat": 44.865458,
    "lng": 3.922725
  },
  {
    "label": "fr",
    "name": "Autoire",
    "ISO": "fr",
    "population": "",
    "lat": 44.853672,
    "lng": 1.819831
  },
  {
    "label": "fr",
    "name": "Auvillar",
    "ISO": "fr",
    "population": "",
    "lat": 44.070043,
    "lng": 0.900166
  },
  {
    "label": "fr",
    "name": "Barfleur",
    "ISO": "fr",
    "population": "",
    "lat": 49.670616,
    "lng": -1.263766
  },
  {
    "label": "fr",
    "name": "Bargème",
    "ISO": "fr",
    "population": "",
    "lat": 43.729791,
    "lng": 6.572886
  },
  {
    "label": "fr",
    "name": "Baume-les-Messieurs",
    "ISO": "fr",
    "population": "",
    "lat": 46.70982,
    "lng": 5.646007
  },
  {
    "label": "fr",
    "name": "Belcastel",
    "ISO": "fr",
    "population": "",
    "lat": 44.387444,
    "lng": 2.334556
  },
  {
    "label": "fr",
    "name": "Belvès",
    "ISO": "fr",
    "population": "",
    "lat": 44.777423,
    "lng": 1.005432
  },
  {
    "label": "fr",
    "name": "Blesle",
    "ISO": "fr",
    "population": "",
    "lat": 45.318937,
    "lng": 3.170256
  },
  {
    "label": "fr",
    "name": "Bonneval-sur-Arc",
    "ISO": "fr",
    "population": "",
    "lat": 45.371599,
    "lng": 7.046231
  },
  {
    "label": "fr",
    "name": "Brousse-le-Château",
    "ISO": "fr",
    "population": "",
    "lat": 43.99682,
    "lng": 2.626473
  },
  {
    "label": "fr",
    "name": "Bruniquel",
    "ISO": "fr",
    "population": "",
    "lat": 44.055321,
    "lng": 1.664531
  },
  {
    "label": "fr",
    "name": "Camon",
    "ISO": "fr",
    "population": "",
    "lat": 49.88796,
    "lng": 2.343814
  },
  {
    "label": "fr",
    "name": "Candes-Saint-Martin",
    "ISO": "fr",
    "population": "",
    "lat": 47.210797,
    "lng": 0.074696
  },
  {
    "label": "fr",
    "name": "Capdenac-le-Haut",
    "ISO": "fr",
    "population": "",
    "lat": 44.580702,
    "lng": 2.069588
  },
  {
    "label": "fr",
    "name": "Cardaillac",
    "ISO": "fr",
    "population": "",
    "lat": 44.680074,
    "lng": 1.995634
  },
  {
    "label": "fr",
    "name": "Carennac",
    "ISO": "fr",
    "population": "",
    "lat": 44.917775,
    "lng": 1.73248
  },
  {
    "label": "fr",
    "name": "Castelnau-de-Montmiral",
    "ISO": "fr",
    "population": "",
    "lat": 43.965652,
    "lng": 1.820217
  },
  {
    "label": "fr",
    "name": "Castelnaud-la-Chapelle",
    "ISO": "fr",
    "population": "",
    "lat": 44.802757,
    "lng": 1.1401
  },
  {
    "label": "fr",
    "name": "Castelnou",
    "ISO": "fr",
    "population": "",
    "lat": 42.619039,
    "lng": 2.703348
  },
  {
    "label": "fr",
    "name": "Charroux",
    "ISO": "fr",
    "population": "",
    "lat": 46.185442,
    "lng": 3.162598
  },
  {
    "label": "fr",
    "name": "Château-Chalon",
    "ISO": "fr",
    "population": "",
    "lat": 46.7549,
    "lng": 5.626338
  },
  {
    "label": "fr",
    "name": "Châteauneuf",
    "ISO": "fr",
    "population": "",
    "lat": 45.538708,
    "lng": 4.648653
  },
  {
    "label": "fr",
    "name": "Collonges-la-Rouge",
    "ISO": "fr",
    "population": "",
    "lat": 45.060939,
    "lng": 1.654225
  },
  {
    "label": "fr",
    "name": "Crissay-sur-Manse",
    "ISO": "fr",
    "population": "",
    "lat": 47.148025,
    "lng": 0.48641
  },
  {
    "label": "fr",
    "name": "Curemonte",
    "ISO": "fr",
    "population": "",
    "lat": 45.000278,
    "lng": 1.742337
  },
  {
    "label": "fr",
    "name": "Domme",
    "ISO": "fr",
    "population": "",
    "lat": 44.801305,
    "lng": 1.217048
  },
  {
    "label": "fr",
    "name": "Estaing",
    "ISO": "fr",
    "population": "",
    "lat": 44.554877,
    "lng": 2.672035
  },
  {
    "label": "fr",
    "name": "Eus",
    "ISO": "fr",
    "population": "",
    "lat": 42.6448,
    "lng": 2.456519
  },
  {
    "label": "fr",
    "name": "Évol (Olette)",
    "ISO": "fr",
    "population": "",
    "lat": 42.568867,
    "lng": 2.254365
  },
  {
    "label": "fr",
    "name": "Flavigny-sur-Ozerain",
    "ISO": "fr",
    "population": "",
    "lat": 47.510859,
    "lng": 4.528943
  },
  {
    "label": "fr",
    "name": "Fourcès",
    "ISO": "fr",
    "population": "",
    "lat": 43.992901,
    "lng": 0.230198
  },
  {
    "label": "fr",
    "name": "Gargilesse-Dampierre",
    "ISO": "fr",
    "population": "",
    "lat": 46.509652,
    "lng": 1.619112
  },
  {
    "label": "fr",
    "name": "Gassin",
    "ISO": "fr",
    "population": "",
    "lat": 43.228355,
    "lng": 6.585578
  },
  {
    "label": "fr",
    "name": "Gerberoy",
    "ISO": "fr",
    "population": "",
    "lat": 49.534236,
    "lng": 1.850054
  },
  {
    "label": "fr",
    "name": "Gourdon",
    "ISO": "fr",
    "population": "",
    "lat": 44.736788,
    "lng": 1.381867
  },
  {
    "label": "fr",
    "name": "Hell-Bourg",
    "ISO": "fr",
    "population": "",
    "lat": -21.05833,
    "lng": 55.516414
  },
  {
    "label": "fr",
    "name": "Hunawihr",
    "ISO": "fr",
    "population": "",
    "lat": 48.179362,
    "lng": 7.309072
  },
  {
    "label": "fr",
    "name": "Hunspach",
    "ISO": "fr",
    "population": "",
    "lat": 48.953467,
    "lng": 7.941689
  },
  {
    "label": "fr",
    "name": "La Bastide-Clairence",
    "ISO": "fr",
    "population": "",
    "lat": 43.429652,
    "lng": -1.255944
  },
  {
    "label": "fr",
    "name": "La Couvertoirade",
    "ISO": "fr",
    "population": "",
    "lat": 43.912943,
    "lng": 3.31661
  },
  {
    "label": "fr",
    "name": "La Flotte",
    "ISO": "fr",
    "population": "",
    "lat": 46.187198,
    "lng": -1.325634
  },
  {
    "label": "fr",
    "name": "La Garde-Adhémar",
    "ISO": "fr",
    "population": "",
    "lat": 44.393179,
    "lng": 4.753137
  },
  {
    "label": "fr",
    "name": "La Garde-Guérin (Prévenchères)",
    "ISO": "fr",
    "population": "",
    "lat": 44.477567,
    "lng": 3.934597
  },
  {
    "label": "fr",
    "name": "La Grave",
    "ISO": "fr",
    "population": "",
    "lat": 45.045842,
    "lng": 6.304706
  },
  {
    "label": "fr",
    "name": "La Roche-Guyon",
    "ISO": "fr",
    "population": "",
    "lat": 49.080652,
    "lng": 1.629129
  },
  {
    "label": "fr",
    "name": "La Roque-sur-Cèze",
    "ISO": "fr",
    "population": "",
    "lat": 44.193372,
    "lng": 4.518438
  },
  {
    "label": "fr",
    "name": "Lagrasse",
    "ISO": "fr",
    "population": "",
    "lat": 43.0915,
    "lng": 2.618532
  },
  {
    "label": "fr",
    "name": "Larressingle",
    "ISO": "fr",
    "population": "",
    "lat": 43.94424,
    "lng": 0.310308
  },
  {
    "label": "fr",
    "name": "Lautrec",
    "ISO": "fr",
    "population": "",
    "lat": 43.707263,
    "lng": 2.138453
  },
  {
    "label": "fr",
    "name": "Lauzerte",
    "ISO": "fr",
    "population": "",
    "lat": 44.255565,
    "lng": 1.137856
  },
  {
    "label": "fr",
    "name": "Lavardens",
    "ISO": "fr",
    "population": "",
    "lat": 43.760522,
    "lng": 0.511695
  },
  {
    "label": "fr",
    "name": "Lavardin",
    "ISO": "fr",
    "population": "",
    "lat": 47.741583,
    "lng": 0.886481
  },
  {
    "label": "fr",
    "name": "Lavaudieu",
    "ISO": "fr",
    "population": "",
    "lat": 45.263104,
    "lng": 3.454036
  },
  {
    "label": "fr",
    "name": "Le Bec-Hellouin",
    "ISO": "fr",
    "population": "",
    "lat": 49.230782,
    "lng": 0.722705
  },
  {
    "label": "fr",
    "name": "Le Poët-Laval",
    "ISO": "fr",
    "population": "",
    "lat": 44.536615,
    "lng": 5.014532
  },
  {
    "label": "fr",
    "name": "Les Baux-de-Provence",
    "ISO": "fr",
    "population": "",
    "lat": 43.743887,
    "lng": 4.795495
  },
  {
    "label": "fr",
    "name": "Limeuil",
    "ISO": "fr",
    "population": "",
    "lat": 44.883652,
    "lng": 0.889542
  },
  {
    "label": "fr",
    "name": "Locronan",
    "ISO": "fr",
    "population": "",
    "lat": 48.098711,
    "lng": -4.207479
  },
  {
    "label": "fr",
    "name": "Lods",
    "ISO": "fr",
    "population": "",
    "lat": 47.044923,
    "lng": 6.246209
  },
  {
    "label": "fr",
    "name": "Loubressac",
    "ISO": "fr",
    "population": "",
    "lat": 44.871154,
    "lng": 1.803832
  },
  {
    "label": "fr",
    "name": "Lourmarin",
    "ISO": "fr",
    "population": "",
    "lat": 43.763477,
    "lng": 5.362582
  },
  {
    "label": "fr",
    "name": "Lussan",
    "ISO": "fr",
    "population": "",
    "lat": 44.153789,
    "lng": 4.366745
  },
  {
    "label": "fr",
    "name": "Lyons-la-Forêt",
    "ISO": "fr",
    "population": "",
    "lat": 49.398575,
    "lng": 1.475351
  },
  {
    "label": "fr",
    "name": "Ménerbes",
    "ISO": "fr",
    "population": "",
    "lat": 43.832978,
    "lng": 5.206745
  },
  {
    "label": "fr",
    "name": "Minerve",
    "ISO": "fr",
    "population": "",
    "lat": 43.354066,
    "lng": 2.7466
  },
  {
    "label": "fr",
    "name": "Mirmande",
    "ISO": "fr",
    "population": "",
    "lat": 44.699431,
    "lng": 4.835226
  },
  {
    "label": "fr",
    "name": "Mittelbergheim",
    "ISO": "fr",
    "population": "",
    "lat": 48.39611,
    "lng": 7.442118
  },
  {
    "label": "fr",
    "name": "Moncontour",
    "ISO": "fr",
    "population": "",
    "lat": 48.361272,
    "lng": -2.63149
  },
  {
    "label": "fr",
    "name": "Monestiés",
    "ISO": "fr",
    "population": "",
    "lat": 44.070751,
    "lng": 2.096313
  },
  {
    "label": "fr",
    "name": "Monflanquin",
    "ISO": "fr",
    "population": "",
    "lat": 44.532748,
    "lng": 0.767717
  },
  {
    "label": "fr",
    "name": "Monpazier",
    "ISO": "fr",
    "population": "",
    "lat": 44.682654,
    "lng": 0.895369
  },
  {
    "label": "fr",
    "name": "Montbrun-les-Bains",
    "ISO": "fr",
    "population": "",
    "lat": 44.175248,
    "lng": 5.44341
  },
  {
    "label": "fr",
    "name": "Montclus",
    "ISO": "fr",
    "population": "",
    "lat": 44.261014,
    "lng": 4.419824
  },
  {
    "label": "fr",
    "name": "Montpeyroux",
    "ISO": "fr",
    "population": "",
    "lat": 43.695436,
    "lng": 3.506458
  },
  {
    "label": "fr",
    "name": "Montréal",
    "ISO": "fr",
    "population": "",
    "lat": 45.501689,
    "lng": -73.567256
  },
  {
    "label": "fr",
    "name": "Montrésor",
    "ISO": "fr",
    "population": "",
    "lat": 47.155031,
    "lng": 1.199237
  },
  {
    "label": "fr",
    "name": "Montsoreau",
    "ISO": "fr",
    "population": "",
    "lat": 47.212863,
    "lng": 0.057215
  },
  {
    "label": "fr",
    "name": "Mornac-sur-Seudre",
    "ISO": "fr",
    "population": "",
    "lat": 45.708796,
    "lng": -1.02933
  },
  {
    "label": "fr",
    "name": "Mortemart",
    "ISO": "fr",
    "population": "",
    "lat": 46.044705,
    "lng": 0.95301
  },
  {
    "label": "fr",
    "name": "Mosset",
    "ISO": "fr",
    "population": "",
    "lat": 42.667793,
    "lng": 2.348859
  },
  {
    "label": "fr",
    "name": "Moustiers-Sainte-Marie",
    "ISO": "fr",
    "population": "",
    "lat": 43.845682,
    "lng": 6.221481
  },
  {
    "label": "fr",
    "name": "Najac",
    "ISO": "fr",
    "population": "",
    "lat": 44.21953,
    "lng": 1.978425
  },
  {
    "label": "fr",
    "name": "Navarrenx",
    "ISO": "fr",
    "population": "",
    "lat": 43.322255,
    "lng": -0.761008
  },
  {
    "label": "fr",
    "name": "Noyers",
    "ISO": "fr",
    "population": "",
    "lat": 47.915252,
    "lng": 2.523468
  },
  {
    "label": "fr",
    "name": "Oingt",
    "ISO": "fr",
    "population": "",
    "lat": 45.950297,
    "lng": 4.584913
  },
  {
    "label": "fr",
    "name": "Olargues",
    "ISO": "fr",
    "population": "",
    "lat": 43.556706,
    "lng": 2.913728
  },
  {
    "label": "fr",
    "name": "Parfondeval",
    "ISO": "fr",
    "population": "",
    "lat": 49.738997,
    "lng": 4.159126
  },
  {
    "label": "fr",
    "name": "Pesmes",
    "ISO": "fr",
    "population": "",
    "lat": 47.27989,
    "lng": 5.563187
  },
  {
    "label": "fr",
    "name": "Peyre (Comprégnac)",
    "ISO": "fr",
    "population": "",
    "lat": 44.09216,
    "lng": 2.999246
  },
  {
    "label": "fr",
    "name": "Piana",
    "ISO": "fr",
    "population": "",
    "lat": 42.238265,
    "lng": 8.636635
  },
  {
    "label": "fr",
    "name": "Pradelles",
    "ISO": "fr",
    "population": "",
    "lat": 44.769875,
    "lng": 3.882018
  },
  {
    "label": "fr",
    "name": "Pujols-le-Haut (Pujols)",
    "ISO": "fr",
    "population": "",
    "lat": 44.386482,
    "lng": 0.690211
  },
  {
    "label": "fr",
    "name": "Puycelsi",
    "ISO": "fr",
    "population": "",
    "lat": 43.992948,
    "lng": 1.710653
  },
  {
    "label": "fr",
    "name": "Rodemack",
    "ISO": "fr",
    "population": "",
    "lat": 49.469075,
    "lng": 6.236234
  },
  {
    "label": "fr",
    "name": "Saint-Amand-de-Coly",
    "ISO": "fr",
    "population": "",
    "lat": 45.063692,
    "lng": 1.246655
  },
  {
    "label": "fr",
    "name": "Saint-Benoît-du-Sault",
    "ISO": "fr",
    "population": "",
    "lat": 46.440907,
    "lng": 1.389618
  },
  {
    "label": "fr",
    "name": "Saint-Bertrand-de-Comminges",
    "ISO": "fr",
    "population": "",
    "lat": 43.026621,
    "lng": 0.57086
  },
  {
    "label": "fr",
    "name": "Saint-Céneri-le-Gérei",
    "ISO": "fr",
    "population": "",
    "lat": 48.381439,
    "lng": -0.050949
  },
  {
    "label": "fr",
    "name": "Saint-Côme-d'Olt",
    "ISO": "fr",
    "population": "",
    "lat": 44.515336,
    "lng": 2.81481
  },
  {
    "label": "fr",
    "name": "Saint-Guilhem-le-Désert",
    "ISO": "fr",
    "population": "",
    "lat": 43.734434,
    "lng": 3.549015
  },
  {
    "label": "fr",
    "name": "Saint-Jean-de-Côle",
    "ISO": "fr",
    "population": "",
    "lat": 45.420193,
    "lng": 0.839327
  },
  {
    "label": "fr",
    "name": "Saint-Léon-sur-Vézère",
    "ISO": "fr",
    "population": "",
    "lat": 45.0113,
    "lng": 1.088113
  },
  {
    "label": "fr",
    "name": "Saint-Quirin",
    "ISO": "fr",
    "population": "",
    "lat": 48.609772,
    "lng": 7.064772
  },
  {
    "label": "fr",
    "name": "Saint-Robert",
    "ISO": "fr",
    "population": "",
    "lat": 45.254959,
    "lng": 1.294282
  },
  {
    "label": "fr",
    "name": "Saint-Véran",
    "ISO": "fr",
    "population": "",
    "lat": 44.700836,
    "lng": 6.868571
  },
  {
    "label": "fr",
    "name": "Sainte-Agnès",
    "ISO": "fr",
    "population": "",
    "lat": 43.800609,
    "lng": 7.461392
  },
  {
    "label": "fr",
    "name": "Sainte-Croix-en-Jarez",
    "ISO": "fr",
    "population": "",
    "lat": 45.47969,
    "lng": 4.646275
  },
  {
    "label": "fr",
    "name": "Sainte-Enimie",
    "ISO": "fr",
    "population": "",
    "lat": 44.366298,
    "lng": 3.410475
  },
  {
    "label": "fr",
    "name": "Sainte-Eulalie-d'Olt",
    "ISO": "fr",
    "population": "",
    "lat": 44.464554,
    "lng": 2.945344
  },
  {
    "label": "fr",
    "name": "Sainte-Suzanne",
    "ISO": "fr",
    "population": "",
    "lat": 48.097456,
    "lng": -0.349277
  },
  {
    "label": "fr",
    "name": "Salers",
    "ISO": "fr",
    "population": "",
    "lat": 45.137854,
    "lng": 2.493809
  },
  {
    "label": "fr",
    "name": "Sare",
    "ISO": "fr",
    "population": "",
    "lat": 43.312739,
    "lng": -1.580979
  },
  {
    "label": "fr",
    "name": "Sarrant",
    "ISO": "fr",
    "population": "",
    "lat": 43.774202,
    "lng": 0.929281
  },
  {
    "label": "fr",
    "name": "Sauveterre-de-Rouergue",
    "ISO": "fr",
    "population": "",
    "lat": 44.220081,
    "lng": 2.317747
  },
  {
    "label": "fr",
    "name": "Ségur-le-Château",
    "ISO": "fr",
    "population": "",
    "lat": 45.429539,
    "lng": 1.307666
  },
  {
    "label": "fr",
    "name": "Séguret",
    "ISO": "fr",
    "population": "",
    "lat": 44.20559,
    "lng": 5.023091
  },
  {
    "label": "fr",
    "name": "Seillans",
    "ISO": "fr",
    "population": "",
    "lat": 43.636242,
    "lng": 6.643412
  },
  {
    "label": "fr",
    "name": "Semur-en-Brionnais",
    "ISO": "fr",
    "population": "",
    "lat": 46.262789,
    "lng": 4.088841
  },
  {
    "label": "fr",
    "name": "Sixt-Fer-à-Cheval",
    "ISO": "fr",
    "population": "",
    "lat": 46.054719,
    "lng": 6.776114
  },
  {
    "label": "fr",
    "name": "Talmont-sur-Gironde",
    "ISO": "fr",
    "population": "",
    "lat": 45.534917,
    "lng": -0.907786
  },
  {
    "label": "fr",
    "name": "Tournemire",
    "ISO": "fr",
    "population": "",
    "lat": 45.05215,
    "lng": 2.484748
  },
  {
    "label": "fr",
    "name": "Tourtour",
    "ISO": "fr",
    "population": "",
    "lat": 43.588556,
    "lng": 6.30313
  },
  {
    "label": "fr",
    "name": "Turenne",
    "ISO": "fr",
    "population": "",
    "lat": 45.05319,
    "lng": 1.580003
  },
  {
    "label": "fr",
    "name": "Usson",
    "ISO": "fr",
    "population": "",
    "lat": 45.527593,
    "lng": 3.337422
  },
  {
    "label": "fr",
    "name": "Venasque",
    "ISO": "fr",
    "population": "",
    "lat": 43.995641,
    "lng": 5.146846
  },
  {
    "label": "fr",
    "name": "Vézelay",
    "ISO": "fr",
    "population": "",
    "lat": 47.465674,
    "lng": 3.746143
  },
  {
    "label": "fr",
    "name": "Villefranche-de-Conflent",
    "ISO": "fr",
    "population": "",
    "lat": 42.586754,
    "lng": 2.366525
  },
  {
    "label": "fr",
    "name": "Vogüé",
    "ISO": "fr",
    "population": "",
    "lat": 44.551115,
    "lng": 4.413293
  },
  {
    "label": "fr",
    "name": "Vouvant",
    "ISO": "fr",
    "population": "",
    "lat": 46.571937,
    "lng": -0.769589
  },
  {
    "label": "fr",
    "name": "Yèvre-le-Châtel (Yèvre-la-Ville)",
    "ISO": "fr",
    "population": "",
    "lat": 48.160121,
    "lng": 2.333128
  },
  {
    "label": "fr",
    "name": "Yvoire",
    "ISO": "fr",
    "population": "",
    "lat": 46.368685,
    "lng": 6.325756
  },
  {
    "label": "",
    "name": "Alba-la-Romaine",
    "ISO": "fr",
    "population": "",
    "lat": 44.554554,
    "lng": 4.597828
  },
  {
    "label": "",
    "name": "Besse-et-Saint-Anastaise",
    "ISO": "fr",
    "population": "",
    "lat": 45.497893,
    "lng": 2.901293
  },
  {
    "label": "",
    "name": "Charroux",
    "ISO": "fr",
    "population": "",
    "lat": 46.185442,
    "lng": 3.162598
  },
  {
    "label": "",
    "name": "Cordes-sur-Ciel",
    "ISO": "fr",
    "population": "",
    "lat": 44.063188,
    "lng": 1.951534
  },
  {
    "label": "",
    "name": "Coulon",
    "ISO": "fr",
    "population": "",
    "lat": 46.321946,
    "lng": -0.585534
  },
  {
    "label": "",
    "name": "Île-de-Sein",
    "ISO": "fr",
    "population": "",
    "lat": 48.036411,
    "lng": -4.852559
  },
  {
    "label": "",
    "name": "La Chaise-Dieu",
    "ISO": "fr",
    "population": "",
    "lat": 45.320631,
    "lng": 3.695845
  },
  {
    "label": "",
    "name": "La Chapelle-aux-Bois",
    "ISO": "fr",
    "population": "",
    "lat": 48.037153,
    "lng": 6.331085
  },
  {
    "label": "",
    "name": "La Salvetat-sur-Agout",
    "ISO": "fr",
    "population": "",
    "lat": 43.600461,
    "lng": 2.702604
  },
  {
    "label": "",
    "name": "Lacapelle-Marival",
    "ISO": "fr",
    "population": "",
    "lat": 44.72784,
    "lng": 1.925505
  },
  {
    "label": "",
    "name": "Le Faou",
    "ISO": "fr",
    "population": "",
    "lat": 48.294468,
    "lng": -4.179609
  },
  {
    "label": "",
    "name": "Oger",
    "ISO": "fr",
    "population": "",
    "lat": 48.95748,
    "lng": 4.009901
  },
  {
    "label": "",
    "name": "Polignac",
    "ISO": "fr",
    "population": "",
    "lat": 45.071308,
    "lng": 3.859439
  },
  {
    "label": "",
    "name": "Rieux-Volvestre",
    "ISO": "fr",
    "population": "",
    "lat": 43.257921,
    "lng": 1.203212
  },
  {
    "label": "",
    "name": "Saint-Amand-sur-Fion",
    "ISO": "fr",
    "population": "",
    "lat": 48.812284,
    "lng": 4.603162
  },
  {
    "label": "",
    "name": "Saint-Floret",
    "ISO": "fr",
    "population": "",
    "lat": 45.550408,
    "lng": 3.104139
  },
  {
    "label": "",
    "name": "Saint-Lizier",
    "ISO": "fr",
    "population": "",
    "lat": 43.002568,
    "lng": 1.135509
  },
  {
    "label": "",
    "name": "Saint-Saturnin",
    "ISO": "fr",
    "population": "",
    "lat": 48.064628,
    "lng": 0.161762
  },
  {
    "label": "",
    "name": "Salmaise",
    "ISO": "fr",
    "population": "",
    "lat": 47.455156,
    "lng": 4.662008
  },
  {
    "label": "",
    "name": "Treignac-sur-Vézère",
    "ISO": "fr",
    "population": "",
    "lat": 45.536306,
    "lng": 1.793835
  },
  {
    "label": "",
    "name": "Stari Grad",
    "ISO": "hr",
    "population": 1906,
    "lat": 43.183996,
    "lng": 16.599251
  },
  {
    "label": "",
    "name": "Ston",
    "ISO": "hr",
    "population": 2605,
    "lat": 42.838669,
    "lng": 17.696324
  },
  {
    "label": "",
    "name": "Kilkenny",
    "ISO": "ir",
    "population": 8625,
    "lat": 52.396204,
    "lng": -6.94719
  },
  {
    "label": "it",
    "name": "Abbateggio",
    "ISO": "it",
    "population": "",
    "lat": 42.225629,
    "lng": 14.010708
  },
  {
    "label": "it",
    "name": "Acerenza",
    "ISO": "it",
    "population": "",
    "lat": 40.79615,
    "lng": 15.942972
  },
  {
    "label": "it",
    "name": "Acquasparta",
    "ISO": "it",
    "population": "",
    "lat": 42.690841,
    "lng": 12.541872
  },
  {
    "label": "it",
    "name": "Aieta",
    "ISO": "it",
    "population": "",
    "lat": 39.928474,
    "lng": 15.823187
  },
  {
    "label": "it",
    "name": "Alberona",
    "ISO": "it",
    "population": "",
    "lat": 41.432188,
    "lng": 15.124244
  },
  {
    "label": "it",
    "name": "Albori (frazione di Vietri sul Mare)",
    "ISO": "it",
    "population": "",
    "lat": 40.670016,
    "lng": 14.709623
  },
  {
    "label": "it",
    "name": "Allerona",
    "ISO": "it",
    "population": "",
    "lat": 42.812556,
    "lng": 11.973853
  },
  {
    "label": "it",
    "name": "Altomonte",
    "ISO": "it",
    "population": "",
    "lat": 39.698482,
    "lng": 16.128949
  },
  {
    "label": "it",
    "name": "Amatrice[3]",
    "ISO": "it",
    "population": "",
    "lat": 34.707848,
    "lng": -106.725332
  },
  {
    "label": "it",
    "name": "Anghiari",
    "ISO": "it",
    "population": "",
    "lat": 43.540103,
    "lng": 12.052143
  },
  {
    "label": "it",
    "name": "Anversa degli Abruzzi",
    "ISO": "it",
    "population": "",
    "lat": 41.995886,
    "lng": 13.804079
  },
  {
    "label": "it",
    "name": "Arquà Petrarca",
    "ISO": "it",
    "population": "",
    "lat": 45.270348,
    "lng": 11.718957
  },
  {
    "label": "it",
    "name": "Arrone",
    "ISO": "it",
    "population": "",
    "lat": 42.584025,
    "lng": 12.768178
  },
  {
    "label": "it",
    "name": "Asolo",
    "ISO": "it",
    "population": "",
    "lat": 45.799259,
    "lng": 11.91411
  },
  {
    "label": "it",
    "name": "Atzara",
    "ISO": "it",
    "population": "",
    "lat": 39.99286,
    "lng": 9.076492
  },
  {
    "label": "it",
    "name": "Bard",
    "ISO": "it",
    "population": "",
    "lat": 45.609095,
    "lng": 7.74553
  },
  {
    "label": "it",
    "name": "Bettona",
    "ISO": "it",
    "population": "",
    "lat": 43.011556,
    "lng": 12.486327
  },
  {
    "label": "it",
    "name": "Bevagna",
    "ISO": "it",
    "population": "",
    "lat": 42.937286,
    "lng": 12.609268
  },
  {
    "label": "it",
    "name": "Bienno",
    "ISO": "it",
    "population": "",
    "lat": 45.882441,
    "lng": 10.358979
  },
  {
    "label": "it",
    "name": "Bobbio",
    "ISO": "it",
    "population": "",
    "lat": 44.770088,
    "lng": 9.38595
  },
  {
    "label": "it",
    "name": "Borghetto (frazione di Valeggio sul Mincio)",
    "ISO": "it",
    "population": "",
    "lat": 45.353678,
    "lng": 10.723172
  },
  {
    "label": "it",
    "name": "Bosa",
    "ISO": "it",
    "population": "",
    "lat": 40.295231,
    "lng": 8.503666
  },
  {
    "label": "it",
    "name": "Bova",
    "ISO": "it",
    "population": "",
    "lat": 38.004922,
    "lng": 15.958237
  },
  {
    "label": "it",
    "name": "Boville Ernica",
    "ISO": "it",
    "population": "",
    "lat": 41.640925,
    "lng": 13.472449
  },
  {
    "label": "it",
    "name": "Bovino",
    "ISO": "it",
    "population": "",
    "lat": 41.268252,
    "lng": 15.371668
  },
  {
    "label": "it",
    "name": "Brisighella",
    "ISO": "it",
    "population": "",
    "lat": 44.221807,
    "lng": 11.769046
  },
  {
    "label": "it",
    "name": "Brugnato",
    "ISO": "it",
    "population": "",
    "lat": 44.236275,
    "lng": 9.720985
  },
  {
    "label": "it",
    "name": "Bugnara",
    "ISO": "it",
    "population": "",
    "lat": 42.021987,
    "lng": 13.86093
  },
  {
    "label": "it",
    "name": "Buonconvento",
    "ISO": "it",
    "population": "",
    "lat": 43.136057,
    "lng": 11.479605
  },
  {
    "label": "it",
    "name": "Campo Ligure",
    "ISO": "it",
    "population": "",
    "lat": 44.53591,
    "lng": 8.698966
  },
  {
    "label": "it",
    "name": "Campodimele",
    "ISO": "it",
    "population": "",
    "lat": 41.386974,
    "lng": 13.532632
  },
  {
    "label": "it",
    "name": "Canterano",
    "ISO": "it",
    "population": "",
    "lat": 41.937873,
    "lng": 13.041455
  },
  {
    "label": "it",
    "name": "Caramanico Terme",
    "ISO": "it",
    "population": "",
    "lat": 42.161112,
    "lng": 14.008598
  },
  {
    "label": "it",
    "name": "Carloforte",
    "ISO": "it",
    "population": "",
    "lat": 39.140126,
    "lng": 8.302981
  },
  {
    "label": "it",
    "name": "Cassinetta di Lugagnano",
    "ISO": "it",
    "population": "",
    "lat": 45.425904,
    "lng": 8.907445
  },
  {
    "label": "it",
    "name": "Castel del Monte",
    "ISO": "it",
    "population": "",
    "lat": 41.084778,
    "lng": 16.270648
  },
  {
    "label": "it",
    "name": "Castel di Tora",
    "ISO": "it",
    "population": "",
    "lat": 42.218311,
    "lng": 12.97234
  },
  {
    "label": "it",
    "name": "Castel Gandolfo",
    "ISO": "it",
    "population": "",
    "lat": 41.749793,
    "lng": 12.648519
  },
  {
    "label": "it",
    "name": "Castelfranco Piandiscò",
    "ISO": "it",
    "population": "",
    "lat": 43.621213,
    "lng": 11.556909
  },
  {
    "label": "it",
    "name": "Castell'Arquato",
    "ISO": "it",
    "population": "",
    "lat": 44.853425,
    "lng": 9.870468
  },
  {
    "label": "it",
    "name": "Castellabate",
    "ISO": "it",
    "population": "",
    "lat": 40.282088,
    "lng": 14.957415
  },
  {
    "label": "it",
    "name": "Castellaro Lagusello (frazione di Monzambano)",
    "ISO": "it",
    "population": "",
    "lat": 45.3747,
    "lng": 10.636675
  },
  {
    "label": "it",
    "name": "Castelli",
    "ISO": "it",
    "population": "",
    "lat": 42.484574,
    "lng": 13.71176
  },
  {
    "label": "it",
    "name": "Castelmezzano",
    "ISO": "it",
    "population": "",
    "lat": 40.528627,
    "lng": 16.045491
  },
  {
    "label": "it",
    "name": "Castelmola",
    "ISO": "it",
    "population": "",
    "lat": 37.859021,
    "lng": 15.277826
  },
  {
    "label": "it",
    "name": "Castelponzone (frazione di Scandolara Ravara)",
    "ISO": "it",
    "population": "",
    "lat": 45.063064,
    "lng": 10.313762
  },
  {
    "label": "it",
    "name": "Castelsardo",
    "ISO": "it",
    "population": "",
    "lat": 40.913692,
    "lng": 8.708592
  },
  {
    "label": "it",
    "name": "Castelvecchio di Rocca Barbena",
    "ISO": "it",
    "population": "",
    "lat": 44.13043,
    "lng": 8.116789
  },
  {
    "label": "it",
    "name": "Castiglione del Lago",
    "ISO": "it",
    "population": "",
    "lat": 43.12645,
    "lng": 12.04784
  },
  {
    "label": "it",
    "name": "Castiglione di Garfagnana",
    "ISO": "it",
    "population": "",
    "lat": 44.152669,
    "lng": 10.411279
  },
  {
    "label": "it",
    "name": "Castiglione di Sicilia",
    "ISO": "it",
    "population": "",
    "lat": 37.86766,
    "lng": 15.055742
  },
  {
    "label": "it",
    "name": "Castroreale",
    "ISO": "it",
    "population": "",
    "lat": 38.100581,
    "lng": 15.212629
  },
  {
    "label": "it",
    "name": "Cefalù",
    "ISO": "it",
    "population": "",
    "lat": 38.008417,
    "lng": 14.018844
  },
  {
    "label": "it",
    "name": "Cervo",
    "ISO": "it",
    "population": "",
    "lat": 43.92503,
    "lng": 8.114189
  },
  {
    "label": "it",
    "name": "Cetona",
    "ISO": "it",
    "population": "",
    "lat": 42.963185,
    "lng": 11.900072
  },
  {
    "label": "it",
    "name": "Chianale (frazione di Pontechianale)",
    "ISO": "it",
    "population": "",
    "lat": 44.648329,
    "lng": 6.996396
  },
  {
    "label": "it",
    "name": "Chianalea (quartiere di Scilla)",
    "ISO": "it",
    "population": "",
    "lat": 38.254661,
    "lng": 15.716284
  },
  {
    "label": "it",
    "name": "Chiusa",
    "ISO": "it",
    "population": "",
    "lat": 46.680256,
    "lng": 11.531819
  },
  {
    "label": "it",
    "name": "Cingoli",
    "ISO": "it",
    "population": "",
    "lat": 43.377426,
    "lng": 13.213956
  },
  {
    "label": "it",
    "name": "Cison di Valmarino",
    "ISO": "it",
    "population": "",
    "lat": 45.972312,
    "lng": 12.165142
  },
  {
    "label": "it",
    "name": "Citerna",
    "ISO": "it",
    "population": "",
    "lat": 43.498013,
    "lng": 12.117846
  },
  {
    "label": "it",
    "name": "Città Sant'Angelo",
    "ISO": "it",
    "population": "",
    "lat": 42.517648,
    "lng": 14.060208
  },
  {
    "label": "it",
    "name": "Civita",
    "ISO": "it",
    "population": "",
    "lat": 39.853151,
    "lng": 16.305177
  },
  {
    "label": "it",
    "name": "Civitella del Tronto",
    "ISO": "it",
    "population": "",
    "lat": 42.773052,
    "lng": 13.676164
  },
  {
    "label": "it",
    "name": "Clauiano (frazione di Trivignano Udinese)",
    "ISO": "it",
    "population": "",
    "lat": 45.931354,
    "lng": 13.334209
  },
  {
    "label": "it",
    "name": "Collalto Sabino",
    "ISO": "it",
    "population": "",
    "lat": 42.136726,
    "lng": 13.047011
  },
  {
    "label": "it",
    "name": "Colletta di Castelbianco",
    "ISO": "it",
    "population": "",
    "lat": 44.111321,
    "lng": 8.065956
  },
  {
    "label": "it",
    "name": "Compiano",
    "ISO": "it",
    "population": "",
    "lat": 44.529138,
    "lng": 9.673119
  },
  {
    "label": "it",
    "name": "Corciano",
    "ISO": "it",
    "population": "",
    "lat": 43.123787,
    "lng": 12.28926
  },
  {
    "label": "it",
    "name": "Cordovado",
    "ISO": "it",
    "population": "",
    "lat": 45.845256,
    "lng": 12.880459
  },
  {
    "label": "it",
    "name": "Coreglia Antelminelli",
    "ISO": "it",
    "population": "",
    "lat": 44.06336,
    "lng": 10.527239
  },
  {
    "label": "it",
    "name": "Corinaldo",
    "ISO": "it",
    "population": "",
    "lat": 43.648797,
    "lng": 13.049839
  },
  {
    "label": "it",
    "name": "Cornello dei Tasso (frazione di Camerata Cornello)",
    "ISO": "it",
    "population": "",
    "lat": 45.892919,
    "lng": 9.654271
  },
  {
    "label": "it",
    "name": "Dozza",
    "ISO": "it",
    "population": "",
    "lat": 44.358768,
    "lng": 11.625741
  },
  {
    "label": "it",
    "name": "Egna",
    "ISO": "it",
    "population": "",
    "lat": 46.31159,
    "lng": 11.272514
  },
  {
    "label": "it",
    "name": "Etroubles",
    "ISO": "it",
    "population": "",
    "lat": 45.822184,
    "lng": 7.237926
  },
  {
    "label": "it",
    "name": "Fagagna",
    "ISO": "it",
    "population": "",
    "lat": 46.117736,
    "lng": 13.08185
  },
  {
    "label": "it",
    "name": "Ferla",
    "ISO": "it",
    "population": "",
    "lat": 37.119438,
    "lng": 14.940008
  },
  {
    "label": "it",
    "name": "Finalborgo (rione di Finale Ligure)",
    "ISO": "it",
    "population": "",
    "lat": 44.169709,
    "lng": 8.340976
  },
  {
    "label": "it",
    "name": "Fiumalbo",
    "ISO": "it",
    "population": "",
    "lat": 44.177895,
    "lng": 10.649536
  },
  {
    "label": "it",
    "name": "Fiumefreddo Bruzio",
    "ISO": "it",
    "population": "",
    "lat": 39.233792,
    "lng": 16.069828
  },
  {
    "label": "it",
    "name": "Fornelli",
    "ISO": "it",
    "population": "",
    "lat": 41.610391,
    "lng": 14.140795
  },
  {
    "label": "it",
    "name": "Fortunago",
    "ISO": "it",
    "population": "",
    "lat": 44.921154,
    "lng": 9.183379
  },
  {
    "label": "it",
    "name": "Framura",
    "ISO": "it",
    "population": "",
    "lat": 44.219117,
    "lng": 9.572912
  },
  {
    "label": "it",
    "name": "Frontino",
    "ISO": "it",
    "population": "",
    "lat": 43.769913,
    "lng": 12.36357
  },
  {
    "label": "it",
    "name": "Frosolone",
    "ISO": "it",
    "population": "",
    "lat": 41.599324,
    "lng": 14.449635
  },
  {
    "label": "it",
    "name": "Furore",
    "ISO": "it",
    "population": "",
    "lat": 40.618573,
    "lng": 14.550961
  },
  {
    "label": "it",
    "name": "Gangi",
    "ISO": "it",
    "population": "",
    "lat": 37.79665,
    "lng": 14.205906
  },
  {
    "label": "it",
    "name": "Garbagna",
    "ISO": "it",
    "population": "",
    "lat": 44.779031,
    "lng": 8.995321
  },
  {
    "label": "it",
    "name": "Garessio",
    "ISO": "it",
    "population": "",
    "lat": 44.20382,
    "lng": 8.014228
  },
  {
    "label": "it",
    "name": "Gerace",
    "ISO": "it",
    "population": "",
    "lat": 38.272021,
    "lng": 16.221787
  },
  {
    "label": "it",
    "name": "Geraci Siculo",
    "ISO": "it",
    "population": "",
    "lat": 37.85189,
    "lng": 14.152703
  },
  {
    "label": "it",
    "name": "Giglio Castello (frazione di Isola del Giglio)",
    "ISO": "it",
    "population": "",
    "lat": 42.366526,
    "lng": 10.900631
  },
  {
    "label": "it",
    "name": "Giove",
    "ISO": "it",
    "population": "",
    "lat": 42.510698,
    "lng": 12.334255
  },
  {
    "label": "it",
    "name": "Glorenza",
    "ISO": "it",
    "population": "",
    "lat": 46.670629,
    "lng": 10.552948
  },
  {
    "label": "it",
    "name": "Gradara",
    "ISO": "it",
    "population": "",
    "lat": 43.939581,
    "lng": 12.771033
  },
  {
    "label": "it",
    "name": "Gradella (frazione di Pandino)",
    "ISO": "it",
    "population": "",
    "lat": 45.424833,
    "lng": 9.532232
  },
  {
    "label": "it",
    "name": "Gradisca d'Isonzo",
    "ISO": "it",
    "population": "",
    "lat": 45.892425,
    "lng": 13.500194
  },
  {
    "label": "it",
    "name": "Grazie (frazione di Curtatone)",
    "ISO": "it",
    "population": "",
    "lat": 45.154481,
    "lng": 10.695122
  },
  {
    "label": "it",
    "name": "Greccio[4][5]",
    "ISO": "it",
    "population": "",
    "lat": 42.407933,
    "lng": 12.776802
  },
  {
    "label": "it",
    "name": "Gromo",
    "ISO": "it",
    "population": "",
    "lat": 45.965381,
    "lng": 9.927165
  },
  {
    "label": "it",
    "name": "Grottammare",
    "ISO": "it",
    "population": "",
    "lat": 42.985343,
    "lng": 13.868367
  },
  {
    "label": "it",
    "name": "Gualtieri",
    "ISO": "it",
    "population": "",
    "lat": 44.889787,
    "lng": 10.611503
  },
  {
    "label": "it",
    "name": "Guardia Perticara",
    "ISO": "it",
    "population": "",
    "lat": 40.360997,
    "lng": 16.098979
  },
  {
    "label": "it",
    "name": "Guardiagrele",
    "ISO": "it",
    "population": "",
    "lat": 42.189815,
    "lng": 14.219946
  },
  {
    "label": "it",
    "name": "Introdacqua",
    "ISO": "it",
    "population": "",
    "lat": 42.008221,
    "lng": 13.897702
  },
  {
    "label": "it",
    "name": "Laigueglia",
    "ISO": "it",
    "population": "",
    "lat": 43.978338,
    "lng": 8.152975
  },
  {
    "label": "it",
    "name": "Lingueglietta (frazione di Cipressa)",
    "ISO": "it",
    "population": "",
    "lat": 43.867543,
    "lng": 7.930706
  },
  {
    "label": "it",
    "name": "Loro Ciuffenna",
    "ISO": "it",
    "population": "",
    "lat": 43.592769,
    "lng": 11.631905
  },
  {
    "label": "it",
    "name": "Lovere",
    "ISO": "it",
    "population": "",
    "lat": 45.80879,
    "lng": 10.067354
  },
  {
    "label": "it",
    "name": "Lugnano in Teverina",
    "ISO": "it",
    "population": "",
    "lat": 42.575165,
    "lng": 12.332085
  },
  {
    "label": "it",
    "name": "Macerata Feltria",
    "ISO": "it",
    "population": "",
    "lat": 43.803213,
    "lng": 12.440741
  },
  {
    "label": "it",
    "name": "Marina di Conca (frazione di Conca dei Marini)",
    "ISO": "it",
    "population": "",
    "lat": 40.615889,
    "lng": 14.575686
  },
  {
    "label": "it",
    "name": "Massa Martana",
    "ISO": "it",
    "population": "",
    "lat": 42.776649,
    "lng": 12.523263
  },
  {
    "label": "it",
    "name": "Mezzano",
    "ISO": "it",
    "population": "",
    "lat": 46.154741,
    "lng": 11.808243
  },
  {
    "label": "it",
    "name": "Milazzo",
    "ISO": "it",
    "population": "",
    "lat": 38.22071,
    "lng": 15.241933
  },
  {
    "label": "it",
    "name": "Millesimo",
    "ISO": "it",
    "population": "",
    "lat": 44.344862,
    "lng": 8.204895
  },
  {
    "label": "it",
    "name": "Mondavio",
    "ISO": "it",
    "population": "",
    "lat": 43.676086,
    "lng": 12.970142
  },
  {
    "label": "it",
    "name": "Mondolfo",
    "ISO": "it",
    "population": "",
    "lat": 43.753573,
    "lng": 13.095758
  },
  {
    "label": "it",
    "name": "Moneglia",
    "ISO": "it",
    "population": "",
    "lat": 44.239147,
    "lng": 9.488618
  },
  {
    "label": "it",
    "name": "Montagnana",
    "ISO": "it",
    "population": "",
    "lat": 45.230837,
    "lng": 11.462409
  },
  {
    "label": "it",
    "name": "Montalbano Elicona",
    "ISO": "it",
    "population": "",
    "lat": 38.022948,
    "lng": 15.016392
  },
  {
    "label": "it",
    "name": "Monte Castello di Vibio",
    "ISO": "it",
    "population": "",
    "lat": 42.837947,
    "lng": 12.348275
  },
  {
    "label": "it",
    "name": "Monte Grimano Terme",
    "ISO": "it",
    "population": "",
    "lat": 43.884857,
    "lng": 12.475464
  },
  {
    "label": "it",
    "name": "Monte Isola",
    "ISO": "it",
    "population": "",
    "lat": 45.711573,
    "lng": 10.075321
  },
  {
    "label": "it",
    "name": "Monte San Giovanni Campano",
    "ISO": "it",
    "population": "",
    "lat": 41.64092,
    "lng": 13.511783
  },
  {
    "label": "it",
    "name": "Montecassiano",
    "ISO": "it",
    "population": "",
    "lat": 43.364433,
    "lng": 13.437496
  },
  {
    "label": "it",
    "name": "Montecosaro",
    "ISO": "it",
    "population": "",
    "lat": 43.316362,
    "lng": 13.639233
  },
  {
    "label": "it",
    "name": "Montefabbri (frazione di Vallefoglia)",
    "ISO": "it",
    "population": "",
    "lat": 43.826878,
    "lng": 12.802723
  },
  {
    "label": "it",
    "name": "Montefalco",
    "ISO": "it",
    "population": "",
    "lat": 42.889294,
    "lng": 12.650284
  },
  {
    "label": "it",
    "name": "Montefiore Conca",
    "ISO": "it",
    "population": "",
    "lat": 43.888399,
    "lng": 12.611423
  },
  {
    "label": "it",
    "name": "Montefiore dell'Aso",
    "ISO": "it",
    "population": "",
    "lat": 43.051851,
    "lng": 13.753638
  },
  {
    "label": "it",
    "name": "Montegridolfo",
    "ISO": "it",
    "population": "",
    "lat": 43.85848,
    "lng": 12.687897
  },
  {
    "label": "it",
    "name": "Montelupone",
    "ISO": "it",
    "population": "",
    "lat": 43.342889,
    "lng": 13.570069
  },
  {
    "label": "it",
    "name": "Montemarcello (frazione di Ameglia)",
    "ISO": "it",
    "population": "",
    "lat": 44.045916,
    "lng": 9.96537
  },
  {
    "label": "it",
    "name": "Montemerano (frazione di Manciano)",
    "ISO": "it",
    "population": "",
    "lat": 42.62195,
    "lng": 11.488993
  },
  {
    "label": "it",
    "name": "Monterosso Almo",
    "ISO": "it",
    "population": "",
    "lat": 37.090417,
    "lng": 14.765596
  },
  {
    "label": "it",
    "name": "Montesarchio",
    "ISO": "it",
    "population": "",
    "lat": 41.063228,
    "lng": 14.638047
  },
  {
    "label": "it",
    "name": "Montescudaio",
    "ISO": "it",
    "population": "",
    "lat": 43.326165,
    "lng": 10.626565
  },
  {
    "label": "it",
    "name": "Monteverde",
    "ISO": "it",
    "population": "",
    "lat": 40.999974,
    "lng": 15.534767
  },
  {
    "label": "it",
    "name": "Montone",
    "ISO": "it",
    "population": "",
    "lat": 43.362323,
    "lng": 12.323687
  },
  {
    "label": "it",
    "name": "Morano Calabro",
    "ISO": "it",
    "population": "",
    "lat": 39.84296,
    "lng": 16.137958
  },
  {
    "label": "it",
    "name": "Moresco",
    "ISO": "it",
    "population": "",
    "lat": 43.085474,
    "lng": 13.731366
  },
  {
    "label": "it",
    "name": "Morimondo",
    "ISO": "it",
    "population": "",
    "lat": 45.355256,
    "lng": 8.955083
  },
  {
    "label": "it",
    "name": "Navelli",
    "ISO": "it",
    "population": "",
    "lat": 42.235994,
    "lng": 13.728443
  },
  {
    "label": "it",
    "name": "Neive",
    "ISO": "it",
    "population": "",
    "lat": 44.721832,
    "lng": 8.103695
  },
  {
    "label": "it",
    "name": "Noli",
    "ISO": "it",
    "population": "",
    "lat": 44.208171,
    "lng": 8.401975
  },
  {
    "label": "it",
    "name": "Norcia",
    "ISO": "it",
    "population": "",
    "lat": 42.791675,
    "lng": 13.094733
  },
  {
    "label": "it",
    "name": "Novara di Sicilia",
    "ISO": "it",
    "population": "",
    "lat": 38.012353,
    "lng": 15.137591
  },
  {
    "label": "it",
    "name": "Nusco",
    "ISO": "it",
    "population": "",
    "lat": 40.888265,
    "lng": 15.089822
  },
  {
    "label": "it",
    "name": "Offagna",
    "ISO": "it",
    "population": "",
    "lat": 43.528286,
    "lng": 13.443522
  },
  {
    "label": "it",
    "name": "Offida",
    "ISO": "it",
    "population": "",
    "lat": 42.940863,
    "lng": 13.696505
  },
  {
    "label": "it",
    "name": "Opi",
    "ISO": "it",
    "population": "",
    "lat": 34.206801,
    "lng": -118.417145
  },
  {
    "label": "it",
    "name": "Oratino",
    "ISO": "it",
    "population": "",
    "lat": 41.584624,
    "lng": 14.585511
  },
  {
    "label": "it",
    "name": "Oriolo",
    "ISO": "it",
    "population": "",
    "lat": 40.051838,
    "lng": 16.448426
  },
  {
    "label": "it",
    "name": "Orta San Giulio",
    "ISO": "it",
    "population": "",
    "lat": 45.796744,
    "lng": 8.416219
  },
  {
    "label": "it",
    "name": "Ortignano Raggiolo",
    "ISO": "it",
    "population": "",
    "lat": 43.67334,
    "lng": 11.718217
  },
  {
    "label": "it",
    "name": "Orvinio",
    "ISO": "it",
    "population": "",
    "lat": 42.134044,
    "lng": 12.937576
  },
  {
    "label": "it",
    "name": "Ostana",
    "ISO": "it",
    "population": "",
    "lat": 44.708531,
    "lng": 7.189803
  },
  {
    "label": "it",
    "name": "Otranto",
    "ISO": "it",
    "population": "",
    "lat": 40.143898,
    "lng": 18.491168
  },
  {
    "label": "it",
    "name": "Pacentro",
    "ISO": "it",
    "population": "",
    "lat": 42.051415,
    "lng": 13.99291
  },
  {
    "label": "it",
    "name": "Paciano",
    "ISO": "it",
    "population": "",
    "lat": 43.027989,
    "lng": 12.060403
  },
  {
    "label": "it",
    "name": "Palazzolo Acreide",
    "ISO": "it",
    "population": "",
    "lat": 37.061862,
    "lng": 14.904141
  },
  {
    "label": "it",
    "name": "Panicale",
    "ISO": "it",
    "population": "",
    "lat": 43.028628,
    "lng": 12.097475
  },
  {
    "label": "it",
    "name": "Penne",
    "ISO": "it",
    "population": "",
    "lat": 42.456912,
    "lng": 13.928129
  },
  {
    "label": "it",
    "name": "Pescocostanzo",
    "ISO": "it",
    "population": "",
    "lat": 41.89021,
    "lng": 14.065595
  },
  {
    "label": "it",
    "name": "Petralia Soprana",
    "ISO": "it",
    "population": "",
    "lat": 37.796415,
    "lng": 14.107877
  },
  {
    "label": "it",
    "name": "Pettorano sul Gizio",
    "ISO": "it",
    "population": "",
    "lat": 41.975673,
    "lng": 13.958613
  },
  {
    "label": "it",
    "name": "Piediluco (frazione di Terni)",
    "ISO": "it",
    "population": "",
    "lat": 42.53256,
    "lng": 12.7523
  },
  {
    "label": "it",
    "name": "Pietracamela",
    "ISO": "it",
    "population": "",
    "lat": 42.523319,
    "lng": 13.553981
  },
  {
    "label": "it",
    "name": "Pietramontecorvino",
    "ISO": "it",
    "population": "",
    "lat": 41.542609,
    "lng": 15.128184
  },
  {
    "label": "it",
    "name": "Pietrapertosa",
    "ISO": "it",
    "population": "",
    "lat": 40.516186,
    "lng": 16.063021
  },
  {
    "label": "it",
    "name": "Pitigliano",
    "ISO": "it",
    "population": "",
    "lat": 42.635318,
    "lng": 11.669991
  },
  {
    "label": "it",
    "name": "Poffabro (frazione di Frisanco)",
    "ISO": "it",
    "population": "",
    "lat": 46.218091,
    "lng": 12.708662
  },
  {
    "label": "it",
    "name": "Polcenigo",
    "ISO": "it",
    "population": "",
    "lat": 46.036914,
    "lng": 12.497398
  },
  {
    "label": "it",
    "name": "Pomponesco",
    "ISO": "it",
    "population": "",
    "lat": 44.929779,
    "lng": 10.597409
  },
  {
    "label": "it",
    "name": "Poppi",
    "ISO": "it",
    "population": "",
    "lat": 43.760786,
    "lng": 11.786565
  },
  {
    "label": "it",
    "name": "Porto Ercole (frazione di Monte Argentario)",
    "ISO": "it",
    "population": "",
    "lat": 42.396657,
    "lng": 11.201569
  },
  {
    "label": "it",
    "name": "Portobuffolé",
    "ISO": "it",
    "population": "",
    "lat": 45.858075,
    "lng": 12.537687
  },
  {
    "label": "it",
    "name": "Posada",
    "ISO": "it",
    "population": "",
    "lat": 40.63036,
    "lng": 9.714892
  },
  {
    "label": "it",
    "name": "Presicce",
    "ISO": "it",
    "population": "",
    "lat": 39.901561,
    "lng": 18.262741
  },
  {
    "label": "it",
    "name": "Pretoro",
    "ISO": "it",
    "population": "",
    "lat": 42.219296,
    "lng": 14.140068
  },
  {
    "label": "it",
    "name": "Rango (frazione di Bleggio Superiore)",
    "ISO": "it",
    "population": "",
    "lat": 46.018356,
    "lng": 10.812048
  },
  {
    "label": "it",
    "name": "Ricetto di Candelo (frazione di Candelo)",
    "ISO": "it",
    "population": "",
    "lat": 45.545901,
    "lng": 8.112883
  },
  {
    "label": "it",
    "name": "Rocca San Giovanni",
    "ISO": "it",
    "population": "",
    "lat": 42.250303,
    "lng": 14.464625
  },
  {
    "label": "it",
    "name": "Roseto Valfortore",
    "ISO": "it",
    "population": "",
    "lat": 41.374295,
    "lng": 15.096914
  },
  {
    "label": "it",
    "name": "Sabbioneta",
    "ISO": "it",
    "population": "",
    "lat": 44.998985,
    "lng": 10.488928
  },
  {
    "label": "it",
    "name": "Salemi",
    "ISO": "it",
    "population": "",
    "lat": 37.807523,
    "lng": 12.782478
  },
  {
    "label": "it",
    "name": "Sambuca di Sicilia",
    "ISO": "it",
    "population": "",
    "lat": 37.647714,
    "lng": 13.111111
  },
  {
    "label": "it",
    "name": "San Benedetto Po",
    "ISO": "it",
    "population": "",
    "lat": 45.029539,
    "lng": 10.925239
  },
  {
    "label": "it",
    "name": "San Casciano dei Bagni",
    "ISO": "it",
    "population": "",
    "lat": 42.85774,
    "lng": 11.854959
  },
  {
    "label": "it",
    "name": "San Gemini",
    "ISO": "it",
    "population": "",
    "lat": 42.611675,
    "lng": 12.547853
  },
  {
    "label": "it",
    "name": "San Ginesio",
    "ISO": "it",
    "population": "",
    "lat": 43.099005,
    "lng": 13.300983
  },
  {
    "label": "it",
    "name": "San Giorgio (frazione di Sant'Ambrogio di Valpolicella)",
    "ISO": "it",
    "population": "",
    "lat": 45.534572,
    "lng": 10.84969
  },
  {
    "label": "it",
    "name": "San Giovanni in Marignano",
    "ISO": "it",
    "population": "",
    "lat": 43.940158,
    "lng": 12.709322
  },
  {
    "label": "it",
    "name": "San Leo",
    "ISO": "it",
    "population": "",
    "lat": 43.896619,
    "lng": 12.343226
  },
  {
    "label": "it",
    "name": "San Lorenzo in Banale (frazione di San Lorenzo Dorsino)",
    "ISO": "it",
    "population": "",
    "lat": 46.076705,
    "lng": 10.909271
  },
  {
    "label": "it",
    "name": "San Marco d'Alunzio",
    "ISO": "it",
    "population": "",
    "lat": 38.073723,
    "lng": 14.697948
  },
  {
    "label": "it",
    "name": "Sant'Agata de' Goti",
    "ISO": "it",
    "population": "",
    "lat": 41.089581,
    "lng": 14.499895
  },
  {
    "label": "it",
    "name": "Santa Fiora",
    "ISO": "it",
    "population": "",
    "lat": 42.83242,
    "lng": 11.584614
  },
  {
    "label": "it",
    "name": "Santa Severina",
    "ISO": "it",
    "population": "",
    "lat": 39.147807,
    "lng": 16.915862
  },
  {
    "label": "it",
    "name": "Santo Stefano di Sessanio",
    "ISO": "it",
    "population": "",
    "lat": 42.344291,
    "lng": 13.645676
  },
  {
    "label": "it",
    "name": "Sarnano",
    "ISO": "it",
    "population": "",
    "lat": 43.025376,
    "lng": 13.277892
  },
  {
    "label": "it",
    "name": "Savignano Irpino",
    "ISO": "it",
    "population": "",
    "lat": 41.228377,
    "lng": 15.181418
  },
  {
    "label": "it",
    "name": "Savoca",
    "ISO": "it",
    "population": "",
    "lat": 37.955758,
    "lng": 15.33963
  },
  {
    "label": "it",
    "name": "Scanno",
    "ISO": "it",
    "population": "",
    "lat": 41.899982,
    "lng": 13.884136
  },
  {
    "label": "it",
    "name": "Scarperia (frazione di Scarperia e San Piero)",
    "ISO": "it",
    "population": "",
    "lat": 43.993749,
    "lng": 11.353346
  },
  {
    "label": "it",
    "name": "Seborga",
    "ISO": "it",
    "population": "",
    "lat": 43.830371,
    "lng": 7.700124
  },
  {
    "label": "it",
    "name": "Sepino",
    "ISO": "it",
    "population": "",
    "lat": 41.409638,
    "lng": 14.62407
  },
  {
    "label": "it",
    "name": "Servigliano",
    "ISO": "it",
    "population": "",
    "lat": 43.078685,
    "lng": 13.489673
  },
  {
    "label": "it",
    "name": "Sesto al Reghena",
    "ISO": "it",
    "population": "",
    "lat": 45.848377,
    "lng": 12.815395
  },
  {
    "label": "it",
    "name": "Soncino",
    "ISO": "it",
    "population": "",
    "lat": 45.399776,
    "lng": 9.873389
  },
  {
    "label": "it",
    "name": "Sovana (frazione di Sorano)",
    "ISO": "it",
    "population": "",
    "lat": 42.658136,
    "lng": 11.645558
  },
  {
    "label": "it",
    "name": "Specchia",
    "ISO": "it",
    "population": "",
    "lat": 39.941167,
    "lng": 18.299996
  },
  {
    "label": "it",
    "name": "Spello",
    "ISO": "it",
    "population": "",
    "lat": 42.987653,
    "lng": 12.67119
  },
  {
    "label": "it",
    "name": "Sperlinga",
    "ISO": "it",
    "population": "",
    "lat": 37.763515,
    "lng": 14.321009
  },
  {
    "label": "it",
    "name": "Sperlonga",
    "ISO": "it",
    "population": "",
    "lat": 41.263674,
    "lng": 13.427141
  },
  {
    "label": "it",
    "name": "Stilo",
    "ISO": "it",
    "population": "",
    "lat": 38.46622,
    "lng": 16.475926
  },
  {
    "label": "it",
    "name": "Subiaco",
    "ISO": "it",
    "population": "",
    "lat": 41.924653,
    "lng": 13.093669
  },
  {
    "label": "it",
    "name": "Sutera",
    "ISO": "it",
    "population": "",
    "lat": 37.52085,
    "lng": 13.735535
  },
  {
    "label": "it",
    "name": "Suvereto",
    "ISO": "it",
    "population": "",
    "lat": 43.076683,
    "lng": 10.678444
  },
  {
    "label": "it",
    "name": "Tagliacozzo",
    "ISO": "it",
    "population": "",
    "lat": 42.06864,
    "lng": 13.251775
  },
  {
    "label": "it",
    "name": "Tellaro (frazione di Lerici)",
    "ISO": "it",
    "population": "",
    "lat": 44.062141,
    "lng": 9.928201
  },
  {
    "label": "it",
    "name": "Toppo (frazione di Travesio)",
    "ISO": "it",
    "population": "",
    "lat": 46.201427,
    "lng": 12.828352
  },
  {
    "label": "it",
    "name": "Torgiano",
    "ISO": "it",
    "population": "",
    "lat": 43.027316,
    "lng": 12.432391
  },
  {
    "label": "it",
    "name": "Torre Alfina (frazione di Acquapendente)",
    "ISO": "it",
    "population": "",
    "lat": 42.755456,
    "lng": 11.943129
  },
  {
    "label": "it",
    "name": "Torre di Palme (frazione di Fermo)",
    "ISO": "it",
    "population": "",
    "lat": 43.141105,
    "lng": 13.808664
  },
  {
    "label": "it",
    "name": "Treia",
    "ISO": "it",
    "population": "",
    "lat": 43.309177,
    "lng": 13.312886
  },
  {
    "label": "it",
    "name": "Tremezzo (frazione di Tremezzina)",
    "ISO": "it",
    "population": "",
    "lat": 45.984862,
    "lng": 9.228819
  },
  {
    "label": "it",
    "name": "Tremosine sul Garda",
    "ISO": "it",
    "population": "",
    "lat": 45.789813,
    "lng": 10.735666
  },
  {
    "label": "it",
    "name": "Trevi",
    "ISO": "it",
    "population": "",
    "lat": 42.877641,
    "lng": 12.748808
  },
  {
    "label": "it",
    "name": "Triora",
    "ISO": "it",
    "population": "",
    "lat": 44.006137,
    "lng": 7.719945
  },
  {
    "label": "it",
    "name": "Vallo di Nera",
    "ISO": "it",
    "population": "",
    "lat": 42.801616,
    "lng": 12.863552
  },
  {
    "label": "it",
    "name": "Valvasone",
    "ISO": "it",
    "population": "",
    "lat": 45.994908,
    "lng": 12.868403
  },
  {
    "label": "it",
    "name": "Venosa",
    "ISO": "it",
    "population": "",
    "lat": 40.960767,
    "lng": 15.815423
  },
  {
    "label": "it",
    "name": "Venzone",
    "ISO": "it",
    "population": "",
    "lat": 46.344618,
    "lng": 13.171702
  },
  {
    "label": "it",
    "name": "Verezzi (frazione di Borgio Verezzi)",
    "ISO": "it",
    "population": "",
    "lat": 44.159728,
    "lng": 8.307475
  },
  {
    "label": "it",
    "name": "Verucchio",
    "ISO": "it",
    "population": "",
    "lat": 43.983423,
    "lng": 12.422454
  },
  {
    "label": "it",
    "name": "Vico del Gargano",
    "ISO": "it",
    "population": "",
    "lat": 41.895999,
    "lng": 15.959619
  },
  {
    "label": "it",
    "name": "Viggianello",
    "ISO": "it",
    "population": "",
    "lat": 39.973207,
    "lng": 16.084394
  },
  {
    "label": "it",
    "name": "Vigoleno (frazione di Vernasca)",
    "ISO": "it",
    "population": "",
    "lat": 44.817026,
    "lng": 9.900417
  },
  {
    "label": "it",
    "name": "Villalago",
    "ISO": "it",
    "population": "",
    "lat": 41.935935,
    "lng": 13.835902
  },
  {
    "label": "it",
    "name": "Vipiteno",
    "ISO": "it",
    "population": "",
    "lat": 46.892673,
    "lng": 11.433619
  },
  {
    "label": "it",
    "name": "Visso",
    "ISO": "it",
    "population": "",
    "lat": 42.929273,
    "lng": 13.087669
  },
  {
    "label": "it",
    "name": "Vogogna",
    "ISO": "it",
    "population": "",
    "lat": 46.007148,
    "lng": 8.293944
  },
  {
    "label": "it",
    "name": "Volpedo",
    "ISO": "it",
    "population": "",
    "lat": 44.889464,
    "lng": 8.98363
  },
  {
    "label": "it",
    "name": "Zavattarello",
    "ISO": "it",
    "population": "",
    "lat": 44.86838,
    "lng": 9.265333
  },
  {
    "label": "it",
    "name": "Zuccarello",
    "ISO": "it",
    "population": "",
    "lat": 44.111757,
    "lng": 8.11659
  },
  {
    "label": "it",
    "name": "Zungoli",
    "ISO": "it",
    "population": "",
    "lat": 41.124609,
    "lng": 15.201389
  },
  {
    "label": "",
    "name": "Monteriggioni",
    "ISO": "it",
    "population": 9165,
    "lat": 43.363013,
    "lng": 11.218378
  },
  {
    "label": "",
    "name": "San Martino",
    "ISO": "si",
    "population": "",
    "lat": 46.004746,
    "lng": 13.554137
  }
]